[
    {
      "name": "Company 1",
      "annual_turnover": "100391 EUR",
      "company_size": "158 employees",
      "address": "Business Street 1",
      "zip": "91300",
      "city": "Amsterdam",
      "country": "Netherlands",
      "lat": 52.3676,
      "lng": 4.9041
    },
    {
      "name": "Company 2",
      "annual_turnover": "194852 EUR",
      "company_size": "129 employees",
      "address": "Business Street 2",
      "zip": "35742",
      "city": "Zurich",
      "country": "Switzerland",
      "lat": 47.3769,
      "lng": 8.5417
    },
    {
      "name": "Company 3",
      "annual_turnover": "366134 EUR",
      "company_size": "250 employees",
      "address": "Business Street 3",
      "zip": "36052",
      "city": "Riga",
      "country": "Latvia",
      "lat": 56.9496,
      "lng": 24.1052
    },
    {
      "name": "Company 4",
      "annual_turnover": "344606 EUR",
      "company_size": "134 employees",
      "address": "Business Street 4",
      "zip": "35890",
      "city": "Zurich",
      "country": "Switzerland",
      "lat": 47.3769,
      "lng": 8.5417
    },
    {
      "name": "Company 5",
      "annual_turnover": "307100 EUR",
      "company_size": "191 employees",
      "address": "Business Street 5",
      "zip": "36971",
      "city": "Bratislava",
      "country": "Slovakia",
      "lat": 48.1486,
      "lng": 17.1077
    },
    {
      "name": "Company 6",
      "annual_turnover": "128936 EUR",
      "company_size": "65 employees",
      "address": "Business Street 6",
      "zip": "15190",
      "city": "Paris",
      "country": "France",
      "lat": 48.8566,
      "lng": 2.3522
    },
    {
      "name": "Company 7",
      "annual_turnover": "318737 EUR",
      "company_size": "45 employees",
      "address": "Business Street 7",
      "zip": "42843",
      "city": "Bratislava",
      "country": "Slovakia",
      "lat": 48.1486,
      "lng": 17.1077
    },
    {
      "name": "Company 8",
      "annual_turnover": "258173 EUR",
      "company_size": "39 employees",
      "address": "Business Street 8",
      "zip": "17331",
      "city": "Budapest",
      "country": "Hungary",
      "lat": 47.4979,
      "lng": 19.0402
    },
    {
      "name": "Company 9",
      "annual_turnover": "303556 EUR",
      "company_size": "475 employees",
      "address": "Business Street 9",
      "zip": "37868",
      "city": "Stockholm",
      "country": "Sweden",
      "lat": 59.3293,
      "lng": 18.0686
    },
    {
      "name": "Company 10",
      "annual_turnover": "312330 EUR",
      "company_size": "294 employees",
      "address": "Business Street 10",
      "zip": "28379",
      "city": "Stockholm",
      "country": "Sweden",
      "lat": 59.3293,
      "lng": 18.0686
    },
    {
      "name": "Company 11",
      "annual_turnover": "282951 EUR",
      "company_size": "431 employees",
      "address": "Business Street 11",
      "zip": "98717",
      "city": "Athens",
      "country": "Greece",
      "lat": 37.9838,
      "lng": 23.7275
    },
    {
      "name": "Company 12",
      "annual_turnover": "475369 EUR",
      "company_size": "194 employees",
      "address": "Business Street 12",
      "zip": "65155",
      "city": "Stockholm",
      "country": "Sweden",
      "lat": 59.3293,
      "lng": 18.0686
    },
    {
      "name": "Company 13",
      "annual_turnover": "118203 EUR",
      "company_size": "314 employees",
      "address": "Business Street 13",
      "zip": "16404",
      "city": "Zurich",
      "country": "Switzerland",
      "lat": 47.3769,
      "lng": 8.5417
    },
    {
      "name": "Company 14",
      "annual_turnover": "335409 EUR",
      "company_size": "192 employees",
      "address": "Business Street 14",
      "zip": "61383",
      "city": "Riga",
      "country": "Latvia",
      "lat": 56.9496,
      "lng": 24.1052
    },
    {
      "name": "Company 15",
      "annual_turnover": "468415 EUR",
      "company_size": "183 employees",
      "address": "Business Street 15",
      "zip": "26211",
      "city": "Zurich",
      "country": "Switzerland",
      "lat": 47.3769,
      "lng": 8.5417
    },
    {
      "name": "Company 16",
      "annual_turnover": "104675 EUR",
      "company_size": "387 employees",
      "address": "Business Street 16",
      "zip": "22091",
      "city": "Athens",
      "country": "Greece",
      "lat": 37.9838,
      "lng": 23.7275
    },
    {
      "name": "Company 17",
      "annual_turnover": "201336 EUR",
      "company_size": "135 employees",
      "address": "Business Street 17",
      "zip": "72287",
      "city": "Prague",
      "country": "Czech Republic",
      "lat": 50.0755,
      "lng": 14.4378
    },
    {
      "name": "Company 18",
      "annual_turnover": "407850 EUR",
      "company_size": "220 employees",
      "address": "Business Street 18",
      "zip": "23955",
      "city": "Amsterdam",
      "country": "Netherlands",
      "lat": 52.3676,
      "lng": 4.9041
    },
    {
      "name": "Company 19",
      "annual_turnover": "114530 EUR",
      "company_size": "38 employees",
      "address": "Business Street 19",
      "zip": "20082",
      "city": "Dublin",
      "country": "Ireland",
      "lat": 53.3498,
      "lng": -6.2603
    },
    {
      "name": "Company 20",
      "annual_turnover": "57235 EUR",
      "company_size": "412 employees",
      "address": "Business Street 20",
      "zip": "60570",
      "city": "Oslo",
      "country": "Norway",
      "lat": 59.9139,
      "lng": 10.7522
    },
    {
      "name": "Company 21",
      "annual_turnover": "137253 EUR",
      "company_size": "415 employees",
      "address": "Business Street 21",
      "zip": "17241",
      "city": "Brussels",
      "country": "Belgium",
      "lat": 50.8503,
      "lng": 4.3517
    },
    {
      "name": "Company 22",
      "annual_turnover": "351578 EUR",
      "company_size": "191 employees",
      "address": "Business Street 22",
      "zip": "51287",
      "city": "Amsterdam",
      "country": "Netherlands",
      "lat": 52.3676,
      "lng": 4.9041
    },
    {
      "name": "Company 23",
      "annual_turnover": "212608 EUR",
      "company_size": "338 employees",
      "address": "Business Street 23",
      "zip": "52592",
      "city": "Budapest",
      "country": "Hungary",
      "lat": 47.4979,
      "lng": 19.0402
    },
    {
      "name": "Company 24",
      "annual_turnover": "96814 EUR",
      "company_size": "183 employees",
      "address": "Business Street 24",
      "zip": "54356",
      "city": "Bratislava",
      "country": "Slovakia",
      "lat": 48.1486,
      "lng": 17.1077
    },
    {
      "name": "Company 25",
      "annual_turnover": "260562 EUR",
      "company_size": "319 employees",
      "address": "Business Street 25",
      "zip": "18665",
      "city": "Riga",
      "country": "Latvia",
      "lat": 56.9496,
      "lng": 24.1052
    },
    {
      "name": "Company 26",
      "annual_turnover": "280151 EUR",
      "company_size": "293 employees",
      "address": "Business Street 26",
      "zip": "85537",
      "city": "Brussels",
      "country": "Belgium",
      "lat": 50.8503,
      "lng": 4.3517
    },
    {
      "name": "Company 27",
      "annual_turnover": "492983 EUR",
      "company_size": "219 employees",
      "address": "Business Street 27",
      "zip": "92666",
      "city": "Zurich",
      "country": "Switzerland",
      "lat": 47.3769,
      "lng": 8.5417
    },
    {
      "name": "Company 28",
      "annual_turnover": "83307 EUR",
      "company_size": "241 employees",
      "address": "Business Street 28",
      "zip": "58888",
      "city": "Amsterdam",
      "country": "Netherlands",
      "lat": 52.3676,
      "lng": 4.9041
    },
    {
      "name": "Company 29",
      "annual_turnover": "168083 EUR",
      "company_size": "107 employees",
      "address": "Business Street 29",
      "zip": "47875",
      "city": "Helsinki",
      "country": "Finland",
      "lat": 60.1695,
      "lng": 24.9354
    },
    {
      "name": "Company 30",
      "annual_turnover": "335263 EUR",
      "company_size": "224 employees",
      "address": "Business Street 30",
      "zip": "63144",
      "city": "Budapest",
      "country": "Hungary",
      "lat": 47.4979,
      "lng": 19.0402
    },
    {
      "name": "Company 31",
      "annual_turnover": "285476 EUR",
      "company_size": "277 employees",
      "address": "Business Street 31",
      "zip": "58178",
      "city": "Amsterdam",
      "country": "Netherlands",
      "lat": 52.3676,
      "lng": 4.9041
    },
    {
      "name": "Company 32",
      "annual_turnover": "177562 EUR",
      "company_size": "295 employees",
      "address": "Business Street 32",
      "zip": "69847",
      "city": "Athens",
      "country": "Greece",
      "lat": 37.9838,
      "lng": 23.7275
    },
    {
      "name": "Company 33",
      "annual_turnover": "153202 EUR",
      "company_size": "173 employees",
      "address": "Business Street 33",
      "zip": "97165",
      "city": "Athens",
      "country": "Greece",
      "lat": 37.9838,
      "lng": 23.7275
    },
    {
      "name": "Company 34",
      "annual_turnover": "300484 EUR",
      "company_size": "118 employees",
      "address": "Business Street 34",
      "zip": "55133",
      "city": "Riga",
      "country": "Latvia",
      "lat": 56.9496,
      "lng": 24.1052
    },
    {
      "name": "Company 35",
      "annual_turnover": "141747 EUR",
      "company_size": "321 employees",
      "address": "Business Street 35",
      "zip": "48123",
      "city": "Warsaw",
      "country": "Poland",
      "lat": 52.2297,
      "lng": 21.0122
    },
    {
      "name": "Company 36",
      "annual_turnover": "108546 EUR",
      "company_size": "267 employees",
      "address": "Business Street 36",
      "zip": "45411",
      "city": "Budapest",
      "country": "Hungary",
      "lat": 47.4979,
      "lng": 19.0402
    },
    {
      "name": "Company 37",
      "annual_turnover": "371564 EUR",
      "company_size": "355 employees",
      "address": "Business Street 37",
      "zip": "13309",
      "city": "Dublin",
      "country": "Ireland",
      "lat": 53.3498,
      "lng": -6.2603
    },
    {
      "name": "Company 38",
      "annual_turnover": "441359 EUR",
      "company_size": "45 employees",
      "address": "Business Street 38",
      "zip": "24357",
      "city": "Vienna",
      "country": "Austria",
      "lat": 48.2082,
      "lng": 16.3738
    },
    {
      "name": "Company 39",
      "annual_turnover": "470435 EUR",
      "company_size": "108 employees",
      "address": "Business Street 39",
      "zip": "61547",
      "city": "Madrid",
      "country": "Spain",
      "lat": 40.4168,
      "lng": -3.7038
    },
    {
      "name": "Company 40",
      "annual_turnover": "470334 EUR",
      "company_size": "10 employees",
      "address": "Business Street 40",
      "zip": "90182",
      "city": "Budapest",
      "country": "Hungary",
      "lat": 47.4979,
      "lng": 19.0402
    },
    {
      "name": "Company 41",
      "annual_turnover": "196815 EUR",
      "company_size": "303 employees",
      "address": "Business Street 41",
      "zip": "57821",
      "city": "Copenhagen",
      "country": "Denmark",
      "lat": 55.6761,
      "lng": 12.5683
    },
    {
      "name": "Company 42",
      "annual_turnover": "129848 EUR",
      "company_size": "294 employees",
      "address": "Business Street 42",
      "zip": "43755",
      "city": "Madrid",
      "country": "Spain",
      "lat": 40.4168,
      "lng": -3.7038
    },
    {
      "name": "Company 43",
      "annual_turnover": "291033 EUR",
      "company_size": "228 employees",
      "address": "Business Street 43",
      "zip": "34826",
      "city": "Riga",
      "country": "Latvia",
      "lat": 56.9496,
      "lng": 24.1052
    },
    {
      "name": "Company 44",
      "annual_turnover": "441956 EUR",
      "company_size": "23 employees",
      "address": "Business Street 44",
      "zip": "87810",
      "city": "Warsaw",
      "country": "Poland",
      "lat": 52.2297,
      "lng": 21.0122
    },
    {
      "name": "Company 45",
      "annual_turnover": "374106 EUR",
      "company_size": "272 employees",
      "address": "Business Street 45",
      "zip": "67461",
      "city": "Athens",
      "country": "Greece",
      "lat": 37.9838,
      "lng": 23.7275
    },
    {
      "name": "Company 46",
      "annual_turnover": "274918 EUR",
      "company_size": "169 employees",
      "address": "Business Street 46",
      "zip": "26817",
      "city": "Budapest",
      "country": "Hungary",
      "lat": 47.4979,
      "lng": 19.0402
    },
    {
      "name": "Company 47",
      "annual_turnover": "413983 EUR",
      "company_size": "120 employees",
      "address": "Business Street 47",
      "zip": "26232",
      "city": "Amsterdam",
      "country": "Netherlands",
      "lat": 52.3676,
      "lng": 4.9041
    },
    {
      "name": "Company 48",
      "annual_turnover": "244939 EUR",
      "company_size": "147 employees",
      "address": "Business Street 48",
      "zip": "83220",
      "city": "Brussels",
      "country": "Belgium",
      "lat": 50.8503,
      "lng": 4.3517
    },
    {
      "name": "Company 49",
      "annual_turnover": "73751 EUR",
      "company_size": "183 employees",
      "address": "Business Street 49",
      "zip": "35773",
      "city": "Helsinki",
      "country": "Finland",
      "lat": 60.1695,
      "lng": 24.9354
    },
    {
      "name": "Company 50",
      "annual_turnover": "310159 EUR",
      "company_size": "140 employees",
      "address": "Business Street 50",
      "zip": "99241",
      "city": "Berlin",
      "country": "Germany",
      "lat": 52.52,
      "lng": 13.405
    },
    {
      "name": "Company 51",
      "annual_turnover": "290337 EUR",
      "company_size": "70 employees",
      "address": "Business Street 51",
      "zip": "20865",
      "city": "Vienna",
      "country": "Austria",
      "lat": 48.2082,
      "lng": 16.3738
    },
    {
      "name": "Company 52",
      "annual_turnover": "326996 EUR",
      "company_size": "86 employees",
      "address": "Business Street 52",
      "zip": "83069",
      "city": "Paris",
      "country": "France",
      "lat": 48.8566,
      "lng": 2.3522
    },
    {
      "name": "Company 53",
      "annual_turnover": "474573 EUR",
      "company_size": "289 employees",
      "address": "Business Street 53",
      "zip": "24457",
      "city": "Brussels",
      "country": "Belgium",
      "lat": 50.8503,
      "lng": 4.3517
    },
    {
      "name": "Company 54",
      "annual_turnover": "493859 EUR",
      "company_size": "340 employees",
      "address": "Business Street 54",
      "zip": "76726",
      "city": "Budapest",
      "country": "Hungary",
      "lat": 47.4979,
      "lng": 19.0402
    },
    {
      "name": "Company 55",
      "annual_turnover": "231194 EUR",
      "company_size": "40 employees",
      "address": "Business Street 55",
      "zip": "64849",
      "city": "Brussels",
      "country": "Belgium",
      "lat": 50.8503,
      "lng": 4.3517
    },
    {
      "name": "Company 56",
      "annual_turnover": "172996 EUR",
      "company_size": "67 employees",
      "address": "Business Street 56",
      "zip": "69539",
      "city": "Warsaw",
      "country": "Poland",
      "lat": 52.2297,
      "lng": 21.0122
    },
    {
      "name": "Company 57",
      "annual_turnover": "161625 EUR",
      "company_size": "330 employees",
      "address": "Business Street 57",
      "zip": "11120",
      "city": "Lisbon",
      "country": "Portugal",
      "lat": 38.7169,
      "lng": -9.1399
    },
    {
      "name": "Company 58",
      "annual_turnover": "450581 EUR",
      "company_size": "355 employees",
      "address": "Business Street 58",
      "zip": "89086",
      "city": "Lisbon",
      "country": "Portugal",
      "lat": 38.7169,
      "lng": -9.1399
    },
    {
      "name": "Company 59",
      "annual_turnover": "285839 EUR",
      "company_size": "81 employees",
      "address": "Business Street 59",
      "zip": "17645",
      "city": "Vienna",
      "country": "Austria",
      "lat": 48.2082,
      "lng": 16.3738
    },
    {
      "name": "Company 60",
      "annual_turnover": "165134 EUR",
      "company_size": "60 employees",
      "address": "Business Street 60",
      "zip": "25032",
      "city": "Dublin",
      "country": "Ireland",
      "lat": 53.3498,
      "lng": -6.2603
    },
    {
      "name": "Company 61",
      "annual_turnover": "473231 EUR",
      "company_size": "126 employees",
      "address": "Business Street 61",
      "zip": "82218",
      "city": "Amsterdam",
      "country": "Netherlands",
      "lat": 52.3676,
      "lng": 4.9041
    },
    {
      "name": "Company 62",
      "annual_turnover": "326224 EUR",
      "company_size": "272 employees",
      "address": "Business Street 62",
      "zip": "63893",
      "city": "Paris",
      "country": "France",
      "lat": 48.8566,
      "lng": 2.3522
    },
    {
      "name": "Company 63",
      "annual_turnover": "268691 EUR",
      "company_size": "464 employees",
      "address": "Business Street 63",
      "zip": "60317",
      "city": "Bratislava",
      "country": "Slovakia",
      "lat": 48.1486,
      "lng": 17.1077
    },
    {
      "name": "Company 64",
      "annual_turnover": "416169 EUR",
      "company_size": "251 employees",
      "address": "Business Street 64",
      "zip": "29278",
      "city": "Vienna",
      "country": "Austria",
      "lat": 48.2082,
      "lng": 16.3738
    },
    {
      "name": "Company 65",
      "annual_turnover": "448391 EUR",
      "company_size": "150 employees",
      "address": "Business Street 65",
      "zip": "13660",
      "city": "Zurich",
      "country": "Switzerland",
      "lat": 47.3769,
      "lng": 8.5417
    },
    {
      "name": "Company 66",
      "annual_turnover": "80051 EUR",
      "company_size": "202 employees",
      "address": "Business Street 66",
      "zip": "55043",
      "city": "Stockholm",
      "country": "Sweden",
      "lat": 59.3293,
      "lng": 18.0686
    },
    {
      "name": "Company 67",
      "annual_turnover": "448918 EUR",
      "company_size": "328 employees",
      "address": "Business Street 67",
      "zip": "23659",
      "city": "Dublin",
      "country": "Ireland",
      "lat": 53.3498,
      "lng": -6.2603
    },
    {
      "name": "Company 68",
      "annual_turnover": "447488 EUR",
      "company_size": "177 employees",
      "address": "Business Street 68",
      "zip": "39566",
      "city": "Athens",
      "country": "Greece",
      "lat": 37.9838,
      "lng": 23.7275
    },
    {
      "name": "Company 69",
      "annual_turnover": "82808 EUR",
      "company_size": "211 employees",
      "address": "Business Street 69",
      "zip": "62837",
      "city": "Riga",
      "country": "Latvia",
      "lat": 56.9496,
      "lng": 24.1052
    },
    {
      "name": "Company 70",
      "annual_turnover": "244235 EUR",
      "company_size": "139 employees",
      "address": "Business Street 70",
      "zip": "84380",
      "city": "Berlin",
      "country": "Germany",
      "lat": 52.52,
      "lng": 13.405
    },
    {
      "name": "Company 71",
      "annual_turnover": "403085 EUR",
      "company_size": "219 employees",
      "address": "Business Street 71",
      "zip": "57551",
      "city": "Madrid",
      "country": "Spain",
      "lat": 40.4168,
      "lng": -3.7038
    },
    {
      "name": "Company 72",
      "annual_turnover": "137022 EUR",
      "company_size": "371 employees",
      "address": "Business Street 72",
      "zip": "92828",
      "city": "Copenhagen",
      "country": "Denmark",
      "lat": 55.6761,
      "lng": 12.5683
    },
    {
      "name": "Company 73",
      "annual_turnover": "457791 EUR",
      "company_size": "184 employees",
      "address": "Business Street 73",
      "zip": "25788",
      "city": "Vienna",
      "country": "Austria",
      "lat": 48.2082,
      "lng": 16.3738
    },
    {
      "name": "Company 74",
      "annual_turnover": "430006 EUR",
      "company_size": "186 employees",
      "address": "Business Street 74",
      "zip": "55814",
      "city": "Warsaw",
      "country": "Poland",
      "lat": 52.2297,
      "lng": 21.0122
    },
    {
      "name": "Company 75",
      "annual_turnover": "434186 EUR",
      "company_size": "87 employees",
      "address": "Business Street 75",
      "zip": "74968",
      "city": "Athens",
      "country": "Greece",
      "lat": 37.9838,
      "lng": 23.7275
    },
    {
      "name": "Company 76",
      "annual_turnover": "404219 EUR",
      "company_size": "229 employees",
      "address": "Business Street 76",
      "zip": "52755",
      "city": "Brussels",
      "country": "Belgium",
      "lat": 50.8503,
      "lng": 4.3517
    },
    {
      "name": "Company 77",
      "annual_turnover": "93824 EUR",
      "company_size": "138 employees",
      "address": "Business Street 77",
      "zip": "35356",
      "city": "Zurich",
      "country": "Switzerland",
      "lat": 47.3769,
      "lng": 8.5417
    },
    {
      "name": "Company 78",
      "annual_turnover": "220286 EUR",
      "company_size": "120 employees",
      "address": "Business Street 78",
      "zip": "58978",
      "city": "Budapest",
      "country": "Hungary",
      "lat": 47.4979,
      "lng": 19.0402
    },
    {
      "name": "Company 79",
      "annual_turnover": "230882 EUR",
      "company_size": "471 employees",
      "address": "Business Street 79",
      "zip": "34196",
      "city": "Stockholm",
      "country": "Sweden",
      "lat": 59.3293,
      "lng": 18.0686
    },
    {
      "name": "Company 80",
      "annual_turnover": "286389 EUR",
      "company_size": "390 employees",
      "address": "Business Street 80",
      "zip": "72217",
      "city": "Warsaw",
      "country": "Poland",
      "lat": 52.2297,
      "lng": 21.0122
    },
    {
      "name": "Company 81",
      "annual_turnover": "459653 EUR",
      "company_size": "24 employees",
      "address": "Business Street 81",
      "zip": "43664",
      "city": "Budapest",
      "country": "Hungary",
      "lat": 47.4979,
      "lng": 19.0402
    },
    {
      "name": "Company 82",
      "annual_turnover": "488405 EUR",
      "company_size": "358 employees",
      "address": "Business Street 82",
      "zip": "95215",
      "city": "Oslo",
      "country": "Norway",
      "lat": 59.9139,
      "lng": 10.7522
    },
    {
      "name": "Company 83",
      "annual_turnover": "79018 EUR",
      "company_size": "111 employees",
      "address": "Business Street 83",
      "zip": "15053",
      "city": "Madrid",
      "country": "Spain",
      "lat": 40.4168,
      "lng": -3.7038
    },
    {
      "name": "Company 84",
      "annual_turnover": "391567 EUR",
      "company_size": "283 employees",
      "address": "Business Street 84",
      "zip": "88923",
      "city": "Helsinki",
      "country": "Finland",
      "lat": 60.1695,
      "lng": 24.9354
    },
    {
      "name": "Company 85",
      "annual_turnover": "383209 EUR",
      "company_size": "13 employees",
      "address": "Business Street 85",
      "zip": "98399",
      "city": "Vienna",
      "country": "Austria",
      "lat": 48.2082,
      "lng": 16.3738
    },
    {
      "name": "Company 86",
      "annual_turnover": "186880 EUR",
      "company_size": "431 employees",
      "address": "Business Street 86",
      "zip": "15818",
      "city": "Riga",
      "country": "Latvia",
      "lat": 56.9496,
      "lng": 24.1052
    },
    {
      "name": "Company 87",
      "annual_turnover": "233428 EUR",
      "company_size": "485 employees",
      "address": "Business Street 87",
      "zip": "64482",
      "city": "Stockholm",
      "country": "Sweden",
      "lat": 59.3293,
      "lng": 18.0686
    },
    {
      "name": "Company 88",
      "annual_turnover": "368675 EUR",
      "company_size": "237 employees",
      "address": "Business Street 88",
      "zip": "41218",
      "city": "Stockholm",
      "country": "Sweden",
      "lat": 59.3293,
      "lng": 18.0686
    },
    {
      "name": "Company 89",
      "annual_turnover": "399742 EUR",
      "company_size": "186 employees",
      "address": "Business Street 89",
      "zip": "82253",
      "city": "Rome",
      "country": "Italy",
      "lat": 41.9028,
      "lng": 12.4964
    },
    {
      "name": "Company 90",
      "annual_turnover": "290676 EUR",
      "company_size": "187 employees",
      "address": "Business Street 90",
      "zip": "48865",
      "city": "Budapest",
      "country": "Hungary",
      "lat": 47.4979,
      "lng": 19.0402
    },
    {
      "name": "Company 91",
      "annual_turnover": "100179 EUR",
      "company_size": "134 employees",
      "address": "Business Street 91",
      "zip": "60033",
      "city": "Warsaw",
      "country": "Poland",
      "lat": 52.2297,
      "lng": 21.0122
    },
    {
      "name": "Company 92",
      "annual_turnover": "457646 EUR",
      "company_size": "213 employees",
      "address": "Business Street 92",
      "zip": "59447",
      "city": "Madrid",
      "country": "Spain",
      "lat": 40.4168,
      "lng": -3.7038
    },
    {
      "name": "Company 93",
      "annual_turnover": "398087 EUR",
      "company_size": "63 employees",
      "address": "Business Street 93",
      "zip": "39098",
      "city": "Prague",
      "country": "Czech Republic",
      "lat": 50.0755,
      "lng": 14.4378
    },
    {
      "name": "Company 94",
      "annual_turnover": "350789 EUR",
      "company_size": "145 employees",
      "address": "Business Street 94",
      "zip": "31568",
      "city": "Budapest",
      "country": "Hungary",
      "lat": 47.4979,
      "lng": 19.0402
    },
    {
      "name": "Company 95",
      "annual_turnover": "95694 EUR",
      "company_size": "495 employees",
      "address": "Business Street 95",
      "zip": "90518",
      "city": "Athens",
      "country": "Greece",
      "lat": 37.9838,
      "lng": 23.7275
    },
    {
      "name": "Company 96",
      "annual_turnover": "77799 EUR",
      "company_size": "283 employees",
      "address": "Business Street 96",
      "zip": "28312",
      "city": "Paris",
      "country": "France",
      "lat": 48.8566,
      "lng": 2.3522
    },
    {
      "name": "Company 97",
      "annual_turnover": "179835 EUR",
      "company_size": "126 employees",
      "address": "Business Street 97",
      "zip": "52782",
      "city": "Stockholm",
      "country": "Sweden",
      "lat": 59.3293,
      "lng": 18.0686
    },
    {
      "name": "Company 98",
      "annual_turnover": "382748 EUR",
      "company_size": "346 employees",
      "address": "Business Street 98",
      "zip": "15586",
      "city": "Prague",
      "country": "Czech Republic",
      "lat": 50.0755,
      "lng": 14.4378
    },
    {
      "name": "Company 99",
      "annual_turnover": "107613 EUR",
      "company_size": "10 employees",
      "address": "Business Street 99",
      "zip": "17013",
      "city": "Bratislava",
      "country": "Slovakia",
      "lat": 48.1486,
      "lng": 17.1077
    },
    {
      "name": "Company 100",
      "annual_turnover": "475240 EUR",
      "company_size": "383 employees",
      "address": "Business Street 100",
      "zip": "58145",
      "city": "Lisbon",
      "country": "Portugal",
      "lat": 38.7169,
      "lng": -9.1399
    }
  ]